{"address":"C-G-01, Apartment Kenanga, Taman Bunga Raya, Bukit Beruntung, Hulu Selangor","address2":"Hulu Selangor, Selangor","city":"Bukit Beruntung","email":"","fax":"","id":"13","image":"","latitude":"0","likes":"0","longitude":"0","name":"Klinik 1 Malaysia Bukit Beruntung","postcode":"48000","rating":"0","state":"SELANGOR","state_id":"10","status":"NEW","tel":"03-60212832","website":""}
{"address":"No.13 Jalan Seroja 1B, Bukit Sentosa. 48000 Hulu Selangor","address2":"Hulu Selangor, Selangor","city":"Hulu Selangor","email":"","fax":"","id":"16","image":"","latitude":"0","likes":"0","longitude":"0","name":"Klinik 1 Malaysia Bukit Sentosa","postcode":"48000","rating":"0","state":"SELANGOR","state_id":"10","status":"NEW","tel":"03-60211466","website":""}
{"address":"No.105, Jalan Cakerapurnama, 12/2 Seksyen 12, Bandar Baru Puncak Alam, 45010 Kuala Selangor","address2":"Kuala Selangor, Selangor","city":"Kuala Selangor","email":"","fax":"03-32895044(pkd)","id":"18","image":"","latitude":"0","likes":"0","longitude":"0","name":"Klinik 1 Malaysia Cakerapurnama","postcode":"45010","rating":"0","state":"SELANGOR","state_id":"10","status":"NEW","tel":"03-33933115","website":""}
{"address":"No.112 \u0026113, Blok A Jalan PJU 1A/42, Taman Putra Damai, Lembah Subang Petaling Jaya","address2":"Petaling Jaya, Selangor","city":"Kelana Jaya","email":"","fax":"","id":"28","image":"","latitude":"0","likes":"0","longitude":"0","name":"Klinik 1 Malaysia Lembah Subang","postcode":"47301","rating":"0","state":"SELANGOR","state_id":"10","status":"NEW","tel":"03-78035533","website":""}
{"address":"No.2A, Jalan 6A, Kg  Lindungan 46000 Petaling Jaya","address2":"Petaling Jaya, Selangor","city":"Petaling Jaya","email":"","fax":"03-77819105","id":"32","image":"","latitude":"0","likes":"0","longitude":"0","name":"Klinik 1 Malaysia PJS 6","postcode":"46000","rating":"0","state":"SELANGOR","state_id":"10","status":"NEW","tel":"03-77819001","website":""}
{"address":"No 1G, Jalan GP 2A, Taman Gombak Permai, 68100 Batu Cave","address2":"Gombak, Selangor","city":"Batu Cave","email":"","fax":"","id":"39","image":"","latitude":"0","likes":"0","longitude":"0","name":"Klinik 1 Malaysia Taman Gombak Permai","postcode":"68100","rating":"0","state":"SELANGOR","state_id":"10","status":"NEW","tel":"03-61856164","website":""}
