{"type":"FeatureCollection","features":[{"type":"Feature","geometry":{"type":"Point","coordinates":[101.4267948,3.2400661]},"properties":{"_latitude":3.0783741,"_longitude":101.6156691,"address":"No.2A, Jalan 6A, Kg  Lindungan 46000 Petaling Jaya","address2":"Petaling Jaya, Selangor","city":"Petaling Jaya","email":"","fax":"03-77819105","id":"32","image":"","latitude":"0","likes":"0","longitude":"0","name":"Klinik 1 Malaysia PJS 6","postcode":"46000","rating":"0","state":"SELANGOR","state_id":"10","status":"NEW","tel":"03-77819001","website":""}},{"type":"Feature","geometry":{"type":"Point","coordinates":[101.544439,3.435582]},"properties":{"_latitude":3.2514413,"_longitude":101.6864699,"address":"No 1G, Jalan GP 2A, Taman Gombak Permai, 68100 Batu Cave","address2":"Gombak, Selangor","city":"Batu Cave","email":"","fax":"","id":"39","image":"","latitude":"0","likes":"0","longitude":"0","name":"Klinik 1 Malaysia Taman Gombak Permai","postcode":"68100","rating":"0","state":"SELANGOR","state_id":"10","status":"NEW","tel":"03-61856164","website":""}},{"type":"Feature","geometry":{"type":"Point","coordinates":[101.5944885,3.1278871]},"properties":{"_latitude":3.1278871,"_longitude":101.5944885,"address":"No.112 \u0026113, Blok A Jalan PJU 1A/42, Taman Putra Damai, Lembah Subang Petaling Jaya","address2":"Petaling Jaya, Selangor","city":"Kelana Jaya","email":"","fax":"","id":"28","image":"","latitude":"0","likes":"0","longitude":"0","name":"Klinik 1 Malaysia Lembah Subang","postcode":"47301","rating":"0","state":"SELANGOR","state_id":"10","status":"NEW","tel":"03-78035533","website":""}},{"type":"Feature","geometry":{"type":"Point","coordinates":[101.5778814,3.4172207]},"properties":{"_latitude":3.4172207,"_longitude":101.5778814,"address":"No.13 Jalan Seroja 1B, Bukit Sentosa. 48000 Hulu Selangor","address2":"Hulu Selangor, Selangor","city":"Hulu Selangor","email":"","fax":"","id":"16","image":"","latitude":"0","likes":"0","longitude":"0","name":"Klinik 1 Malaysia Bukit Sentosa","postcode":"48000","rating":"0","state":"SELANGOR","state_id":"10","status":"NEW","tel":"03-60211466","website":""}},{"type":"Feature","geometry":{"type":"Point","coordinates":[101.6864699,3.2514413]},"properties":{"_latitude":3.2514413,"_longitude":101.6864699,"address":"No 1G, Jalan GP 2A, Taman Gombak Permai, 68100 Batu Cave","address2":"Gombak, Selangor","city":"Batu Cave","email":"","fax":"","id":"39","image":"","latitude":"0","likes":"0","longitude":"0","name":"Klinik 1 Malaysia Taman Gombak Permai","postcode":"68100","rating":"0","state":"SELANGOR","state_id":"10","status":"NEW","tel":"03-61856164","website":""}},{"type":"Feature","geometry":{"type":"Point","coordinates":[101.6156691,3.0783741]},"properties":{"_latitude":3.0783741,"_longitude":101.6156691,"address":"No.2A, Jalan 6A, Kg  Lindungan 46000 Petaling Jaya","address2":"Petaling Jaya, Selangor","city":"Petaling Jaya","email":"","fax":"03-77819105","id":"32","image":"","latitude":"0","likes":"0","longitude":"0","name":"Klinik 1 Malaysia PJS 6","postcode":"46000","rating":"0","state":"SELANGOR","state_id":"10","status":"NEW","tel":"03-77819001","website":""}}]}